{
  "version": "1.0",
  "backup_timestamp": "20251128_143933",
  "exportado": "2025-11-28T14:39:33.611520",
  "centros_distribucion": [
    {
      "nombre": "CENTRO DISTRIBUCION CARNES SAN MARTIN",
      "ciudad": "HEREDIA",
      "direccion": "BARREAL DE HEREDIA",
      "telefono": "2260-9900",
      "capacidad_almacen": "5000 m²",
      "tipo_centro": "Principal",
      "estado": "activo",
      "fecha_apertura": "2024-01-08",
      "zona_cobertura": "Distribución Nacional",
      "responsable": "Director Logística",
      "lat": 9.9838432,
      "lon": -84.1400806,
      "id": "CD001"
    }
  ],
  "distribuidores_autorizados": [
    {
      "nombre": "CARNES SAN MARTIN SAN RAFAEL",
      "ciudad": "SAN RAFAEL DE HEREDIA",
      "direccion": "SAN RAFAEL DE HEREDIA",
      "telefono": "2234-5678",
      "estado": "activo",
      "fecha_apertura": "2025-11-27",
      "lat": 10.01310191,
      "lon": -84.09848401,
      "id": "2"
    },
    {
      "id": "3",
      "nombre": "CARNES SAN MARTIN DESAMPARADOS",
      "ciudad": "DESAMPARADOS",
      "lat": 9.89992377,
      "lon": -84.06821737,
      "direccion": "DESAMPARADOS",
      "telefono": "2278-9012",
      "estado": "activo",
      "fecha_apertura": "2024-01-01",
      "fecha_cierre": null,
      "responsable": "Administrador Local",
      "zona_cobertura": "Desamparados"
    },
    {
      "id": "8",
      "nombre": "CARNES SAN MARTIN ALAJUELA",
      "ciudad": "ALAJUELA",
      "lat": 10.01353662,
      "lon": -84.20878235,
      "direccion": "ALAJUELA",
      "telefono": "2441-3456",
      "estado": "activo",
      "fecha_apertura": "2024-01-01",
      "fecha_cierre": null,
      "responsable": "Administrador Local",
      "zona_cobertura": "Alajuela Centro"
    },
    {
      "id": "13",
      "nombre": "CARNES SAN MARTIN SAN RAMON",
      "ciudad": "SAN RAMON",
      "lat": 10.09077578,
      "lon": -84.47463665,
      "direccion": "SAN RAMON",
      "telefono": "2445-6789",
      "estado": "activo",
      "fecha_apertura": "2024-01-01",
      "fecha_cierre": null,
      "responsable": "Administrador Local",
      "zona_cobertura": "San Ramón"
    },
    {
      "id": "14",
      "nombre": "CARNES SAN MARTIN PALMARES",
      "ciudad": "PALMARES",
      "lat": 10.05843333,
      "lon": -84.43372121,
      "direccion": "PALMARES",
      "telefono": "2453-1234",
      "estado": "activo",
      "fecha_apertura": "2024-01-01",
      "fecha_cierre": null,
      "responsable": "Administrador Local",
      "zona_cobertura": "Palmares"
    },
    {
      "id": "15",
      "nombre": "CARNES SAN MARTIN ZAPOTE",
      "ciudad": "ZAPOTE",
      "lat": 9.9199802,
      "lon": -84.05190844,
      "direccion": "ZAPOTE",
      "telefono": "2234-8765",
      "estado": "activo",
      "fecha_apertura": "2024-01-01",
      "fecha_cierre": null,
      "responsable": "Administrador Local",
      "zona_cobertura": "San José Este"
    },
    {
      "id": "16",
      "nombre": "CARNES SAN MARTIN TIBAS",
      "ciudad": "TIBAS",
      "lat": 9.96215221,
      "lon": -84.06981294,
      "direccion": "TIBAS FRENTE A FERRETERIA MAFLOR",
      "telefono": "2236-5432",
      "estado": "activo",
      "fecha_apertura": "2024-01-01",
      "fecha_cierre": null,
      "responsable": "Administrador Local",
      "zona_cobertura": "Tibas"
    },
    {
      "id": "17",
      "nombre": "CARNES SAN MARTIN GUADALUPE",
      "ciudad": "GUADALUPE",
      "lat": 9.95050651,
      "lon": -84.04824652,
      "direccion": "GUADALUPE",
      "telefono": "2234-1122",
      "estado": "activo",
      "fecha_apertura": "2024-01-01",
      "fecha_cierre": null,
      "responsable": "Administrador Local",
      "zona_cobertura": "Guadalupe"
    },
    {
      "id": "25",
      "nombre": "CARNES SAN MARTIN ROHRMOSER",
      "ciudad": "ROHRMOSER",
      "lat": 9.94438555,
      "lon": -84.11678938,
      "direccion": "ROHRMOSER",
      "telefono": "2232-3344",
      "estado": "activo",
      "fecha_apertura": "2024-01-01",
      "fecha_cierre": null,
      "responsable": "Administrador Local",
      "zona_cobertura": "Rohrmoser"
    },
    {
      "id": "30",
      "nombre": "CARNES SAN MARTIN CARTAGO ARBOLEDA",
      "ciudad": "CARTAGO",
      "lat": 9.86252574,
      "lon": -83.93305301,
      "direccion": "CARTAGO",
      "telefono": "2551-5566",
      "estado": "activo",
      "fecha_apertura": "2024-01-01",
      "fecha_cierre": null,
      "responsable": "Administrador Local",
      "zona_cobertura": "Cartago Centro"
    },
    {
      "id": "32",
      "nombre": "CARNES SAN MARTIN CARTAGO TARAS",
      "ciudad": "CARTAGO",
      "lat": 9.87970891,
      "lon": -83.91766578,
      "direccion": "TARAS CARTAGO",
      "telefono": "2552-8899",
      "estado": "activo",
      "fecha_apertura": "2024-01-01",
      "fecha_cierre": null,
      "responsable": "Administrador Local",
      "zona_cobertura": "Cartago Este"
    },
    {
      "nombre": "CARNES SAN MARTIN SANTA ANA",
      "ciudad": "SANTA ANA",
      "direccion": "SANTA ANA",
      "telefono": "2282-0011",
      "estado": "activo",
      "fecha_apertura": "2025-11-27",
      "lat": 9.93515742,
      "lon": -84.18849632,
      "id": "34"
    },
    {
      "nombre": "CARNES SAN MARTIN JACO",
      "ciudad": "PUNTARENAS",
      "direccion": "JACO",
      "telefono": "2282-0011",
      "estado": "proxima_apertura",
      "fecha_apertura": "2026-02-01",
      "lat": 9.614588,
      "lon": -84.626152,
      "id": "42"
    },
    {
      "nombre": "CARNES SAN MARTIN LIBERIA",
      "ciudad": "LIBERIA",
      "direccion": "LIBERIA",
      "telefono": "555",
      "estado": "activo",
      "fecha_apertura": "2025-11-28",
      "lat": 10.592854849853495,
      "lon": -85.53530203806127,
      "id": "D001"
    }
  ],
  "tiendas_oro": [
    {
      "nombre": "ASOC. EMPLEADOS COOPEGUANACASTE",
      "ciudad": "GUANACASTE",
      "direccion": "Guanacaste , Santa Cruz, Barrio Tamarindo",
      "capacidad_congelador": "260L",
      "estado": "activo",
      "fecha_apertura": "2025-11-27",
      "lat": 10.269863826334625,
      "lon": -85.57310647312687,
      "id": "TO001"
    },
    {
      "nombre": "FRUTAS Y VERDURAS ALONSO #3",
      "ciudad": "GUANASCASTE",
      "direccion": "NOSARA GUANACASTE",
      "capacidad_congelador": "260L",
      "estado": "activo",
      "fecha_apertura": "2025-11-27",
      "lat": 9.96834629546567,
      "lon": -85.6477426107406,
      "id": "TO002"
    },
    {
      "nombre": "SUPER PALA (LUIS ALBERTO PEREZ)",
      "ciudad": "PUNTARENAS",
      "direccion": "RECIDENCIAL LOS DELFINES, POCHOTE DE PAQUERA",
      "capacidad_congelador": "260L",
      "estado": "proxima_apertura",
      "fecha_apertura": "2026-07-27",
      "lat": 9.74361157344752,
      "lon": -85.01493353943467,
      "id": "TO003"
    }
  ],
  "tiendas_satelite": [
    {
      "nombre": "TIENDA SATELITE EJEMPLO",
      "ciudad": "PUNTARENAS",
      "direccion": "PUNTARENAS",
      "tipo_satelite": "TIENDA SATELITE",
      "estado": "activo",
      "fecha_apertura": "2025-06-18",
      "lat": 9.609430705942222,
      "lon": -84.10046028721031,
      "id": "TS001"
    },
    {
      "nombre": "TIENDA EJEMPLO 3",
      "ciudad": "ad",
      "direccion": "ad",
      "tipo_satelite": "TIENDA SATELITE",
      "estado": "proxima_apertura",
      "fecha_apertura": "2026-06-01",
      "lat": 9.920666354944164,
      "lon": -84.02033070907565,
      "id": "TS002"
    }
  ]
}