[
    {
        "nombre": "CARNES SAN MARTIN SAN RAFAEL",
        "ciudad": "SAN RAFAEL DE HEREDIA",
        "direccion": "SAN RAFAEL DE HEREDIA",
        "telefono": "2234-5678",
        "estado": "activo",
        "lat": 10.01310191,
        "lon": -84.09848401,
        "id": "2"
    },
    {
        "id": "3",
        "nombre": "CARNES SAN MARTIN DESAMPARADOS",
        "ciudad": "DESAMPARADOS",
        "lat": 9.89992377,
        "lon": -84.06821737,
        "direccion": "DESAMPARADOS",
        "telefono": "2278-9012",
        "estado": "activo",
        "fecha_apertura": "2024-01-01",
        "fecha_cierre": null,
        "responsable": "Administrador Local",
        "zona_cobertura": "Desamparados"
    },
    {
        "id": "8",
        "nombre": "CARNES SAN MARTIN ALAJUELA",
        "ciudad": "ALAJUELA",
        "lat": 10.01353662,
        "lon": -84.20878235,
        "direccion": "ALAJUELA",
        "telefono": "2441-3456",
        "estado": "activo",
        "fecha_apertura": "2024-01-01",
        "fecha_cierre": null,
        "responsable": "Administrador Local",
        "zona_cobertura": "Alajuela Centro"
    },
    {
        "id": "13",
        "nombre": "CARNES SAN MARTIN SAN RAMON",
        "ciudad": "SAN RAMON",
        "lat": 10.09077578,
        "lon": -84.47463665,
        "direccion": "SAN RAMON",
        "telefono": "2445-6789",
        "estado": "activo",
        "fecha_apertura": "2024-01-01",
        "fecha_cierre": null,
        "responsable": "Administrador Local",
        "zona_cobertura": "San Ramón"
    },
    {
        "id": "14",
        "nombre": "CARNES SAN MARTIN PALMARES",
        "ciudad": "PALMARES",
        "lat": 10.05843333,
        "lon": -84.43372121,
        "direccion": "PALMARES",
        "telefono": "2453-1234",
        "estado": "activo",
        "fecha_apertura": "2024-01-01",
        "fecha_cierre": null,
        "responsable": "Administrador Local",
        "zona_cobertura": "Palmares"
    },
    {
        "id": "15",
        "nombre": "CARNES SAN MARTIN ZAPOTE",
        "ciudad": "ZAPOTE",
        "lat": 9.9199802,
        "lon": -84.05190844,
        "direccion": "ZAPOTE",
        "telefono": "2234-8765",
        "estado": "activo",
        "fecha_apertura": "2024-01-01",
        "fecha_cierre": null,
        "responsable": "Administrador Local",
        "zona_cobertura": "San José Este"
    },
    {
        "id": "16",
        "nombre": "CARNES SAN MARTIN TIBAS",
        "ciudad": "TIBAS",
        "lat": 9.96215221,
        "lon": -84.06981294,
        "direccion": "TIBAS FRENTE A FERRETERIA MAFLOR",
        "telefono": "2236-5432",
        "estado": "activo",
        "fecha_apertura": "2024-01-01",
        "fecha_cierre": null,
        "responsable": "Administrador Local",
        "zona_cobertura": "Tibas"
    },
    {
        "id": "17",
        "nombre": "CARNES SAN MARTIN GUADALUPE",
        "ciudad": "GUADALUPE",
        "lat": 9.95050651,
        "lon": -84.04824652,
        "direccion": "GUADALUPE",
        "telefono": "2234-1122",
        "estado": "activo",
        "fecha_apertura": "2024-01-01",
        "fecha_cierre": null,
        "responsable": "Administrador Local",
        "zona_cobertura": "Guadalupe"
    },
    {
        "id": "25",
        "nombre": "CARNES SAN MARTIN ROHRMOSER",
        "ciudad": "ROHRMOSER",
        "lat": 9.94438555,
        "lon": -84.11678938,
        "direccion": "ROHRMOSER",
        "telefono": "2232-3344",
        "estado": "activo",
        "fecha_apertura": "2024-01-01",
        "fecha_cierre": null,
        "responsable": "Administrador Local",
        "zona_cobertura": "Rohrmoser"
    },
    {
        "id": "30",
        "nombre": "CARNES SAN MARTIN CARTAGO ARBOLEDA",
        "ciudad": "CARTAGO",
        "lat": 9.86252574,
        "lon": -83.93305301,
        "direccion": "CARTAGO",
        "telefono": "2551-5566",
        "estado": "activo",
        "fecha_apertura": "2024-01-01",
        "fecha_cierre": null,
        "responsable": "Administrador Local",
        "zona_cobertura": "Cartago Centro"
    },
    {
        "id": "31",
        "nombre": "SEDI CARNES SAN MARTIN",
        "ciudad": "HEREDIA",
        "lat": 9.9838677,
        "lon": -84.1400845,
        "direccion": "HEREDIA",
        "telefono": "2260-7788",
        "estado": "activo",
        "fecha_apertura": "2024-01-01",
        "fecha_cierre": null,
        "responsable": "Gerente Regional",
        "zona_cobertura": "Todo el País"
    },
    {
        "id": "32",
        "nombre": "CARNES SAN MARTIN CARTAGO TARAS",
        "ciudad": "CARTAGO",
        "lat": 9.87970891,
        "lon": -83.91766578,
        "direccion": "TARAS CARTAGO",
        "telefono": "2552-8899",
        "estado": "activo",
        "fecha_apertura": "2024-01-01",
        "fecha_cierre": null,
        "responsable": "Administrador Local",
        "zona_cobertura": "Cartago Este"
    },
    {
        "id": "33",
        "nombre": "CENTRO DISTRIBUCION CARNES SAN MARTIN",
        "ciudad": "HEREDIA",
        "lat": 9.9838432,
        "lon": -84.1400806,
        "direccion": "BARREAL DE HEREDIA",
        "telefono": "2260-9900",
        "estado": "activo",
        "fecha_apertura": "2024-01-01",
        "fecha_cierre": null,
        "responsable": "Director Logística",
        "zona_cobertura": "Distribución Nacional"
    },
    {
        "nombre": "CARNES SAN MARTIN SANTA ANA",
        "ciudad": "SANTA ANA",
        "direccion": "SANTA ANA",
        "telefono": "2282-0011",
        "estado": "activo",
        "lat": 9.93515742,
        "lon": -84.18849632,
        "id": "34"
    },
    {
        "nombre": "CARNES SAN MARTIN JACO",
        "ciudad": "PUNTARENAS",
        "direccion": "JACO",
        "telefono": "2282-0011",
        "estado": "planeado",
        "lat": 9.614588,
        "lon": -84.626152,
        "id": "42"
    },
    {
        "nombre": "CARNES SAN MARTIN LIBERIA SOLARIUM",
        "ciudad": "GUANACASTE",
        "direccion": "Solarium, Guanacaste  Liberia",
        "telefono": "26681360",
        "estado": "activo",
        "lat": 10.592966318791047,
        "lon": -85.53532584614214,
        "id": "D016"
    },
    {
        "nombre": "CARNES SAN MARTIN NICOYA",
        "ciudad": "GUANACASTE",
        "direccion": "CENTRO COMERCIAL PLAZA AMARA",
        "telefono": "88400480",
        "estado": "activo",
        "lat": 10.159306911873077,
        "lon": -85.44720688043704,
        "id": "D017"
    },
    {
        "nombre": "CARNES SAN MARTIN PLAYA EL COCO",
        "ciudad": "GUANACASTE",
        "direccion": "Playas del Coco, La Chorrera Pueblito Sur, Guanacaste, Carrillo",
        "telefono": "60284948",
        "estado": "activo",
        "lat": 10.553822942833285,
        "lon": -85.6925297359551,
        "id": "D018"
    },
    {
        "nombre": "CARNES SAN MARTIN HUACAS",
        "ciudad": "GUANACASTE",
        "direccion": "FRENTE A PLAZA PASEO DEL MAR",
        "telefono": "6048-4948",
        "estado": "activo",
        "lat": 10.3779267749508,
        "lon": -85.7857224726091,
        "id": "D019"
    },
    {
        "nombre": "CARNES SAN MARTIN HEREDIA SAN FRANCISCO",
        "ciudad": "HEREDIA",
        "direccion": "PLAZA NAJORI, SAN FRANCISCO DE HEREDIA, LOCAL #4",
        "telefono": "4035-6581",
        "estado": "activo",
        "lat": 9.998073932427092,
        "lon": -84.14361316353484,
        "id": "D020"
    }
]